[
  {
    "id": "vivvo",
    "name": "Vivvo Application Studios",
    "website": "http://www.vivvo.com/",
    "industry": "",
    "address": "300A - 2221 Cornwall Street\nRegina,SK.\nS4P 2L1",
    "lat": 50.443612,
    "lng": -104.611938,
    "sponsorship": "platinum",
    "technology": [
      "Angular",
      "AngularJs",
      "Consul",
      "Docker",
      "Go",
      "Java",
      "Node.js",
      "Nomad",
      "Terraform"
    ]
  },
  {
    "id": "fcc",
    "name": "Farm Credit Canada",
    "industry": "",
    "address": "1800 Hamilton Street\nRegina,SK.\nS4P 4L3",
    "lat": 50.4500274,
    "lng": -104.6119856,
    "technology": [
      "Angular",
      "AngularJs",
      "Java",
      "SAP"
    ]
  },
  {
    "id": "offstreet",
    "name": "Offstreet Technology",
    "website": "http://www.offstreet.ca/",
    "industry": "Parking Software",
    "address": "5 Asgar Walk\nRegina,SK.\nS4S 6W4",
    "lat": 50.4036204,
    "lng": -104.6281632,
    "technology": [
      "Angular",
      "Typescript",
      "Express.js",
      "Node.js",
      "AWS"
    ]
  },
  {
    "id": "iqmetrix",
    "name": "iQmetrix",
    "website": "http://www.iqmetrix.com/",
    "industry": "Wireless Retail Management Software",
    "address": "700-1801 Hamilton St\nRegina,SK.\nS4P 4B4",
    "lat": 50.450098,
    "lng": -104.609090,
    "technology": [
      ".NET",
      "Azure",
      "SQL Server",
      "Node.js",
      "Typescript"
    ]
  },
  {
    "id": "covasoftware",
    "name": "Cova Software",
    "website": "http://www.covasoftware.com/",
    "industry": "Cannabis Dispensary Retail Software",
    "address": "700-1801 Hamilton St\nRegina,SK.\nS4P 4B4",
    "lat": 50.450098,
    "lng": -104.609090,
    "technology": [
      ".NET",
      "Android",
      "Azure",
      "Java",
      "MongoDb",
      "Node.js",
      "SQL Server",
      "Typescript"
    ]
  },
  {
    "id": "bitcutter",
    "name": "BitCutter Studios",
    "website": "https://www.bitcutter.com/",
    "industry": "Game Development",
    "address": "1412 N Benjamin Crescent\nRegina SK.\nS4X 4L3",
    "lat": 50.501020,
    "lng": -104.663479,
    "technology": [
      "Unity",
      "Maya",
      "Substance",
      "C#",
      "Node.js",
      "Ruby",
      "Ruby on Rails",
      "Java",
      "Adobe Suite"
    ]
  },
  {
    "id": "dot",
    "name": "Dot Technology Corp.",
    "website": "https://www.seedotrun.com/",
    "industry": "Autonomous Agriculture",
    "address": "1 South Plains Road West\nEmerald Park,SK.\nS4L 1C6",
    "lat": 50.445638,
    "lng": -104.412405,
    "technology": [
      "AWS",
      "C#",
      "C/C++",
      "JavaScript",
      "Node.js",
      "OpenCV",
      "Python"
    ]
  },
  {
    "id": "luketowersconsulting",
    "name": "Luke Towers Consulting",
    "website": "https://luketowers.ca/",
    "industry": "Web development",
    "address": "267B Magee Crescent\nRegina,SK.\nS4R 6K8",
    "lat": 50.490612,
    "lng": -104.635588,
    "technology": [
      "CSS",
      "HTML",
      "JavaScript",
      "Laravel",
      "OctoberCMS",
      "PHP",
      "WordPress"
    ]
  },
  {
    "id": "shiverware",
    "name": "Shiverware Mobile & IoT Solutions Inc.",
    "website": "https://shiverware.com/",
    "industry": "Mobile and IoT Consulting",
    "address": "105A - 2 Research Drive\nRegina,SK.\nS4S 7H9",
    "lat": 50.41533330000001,
    "lng": -104.59035269999998,
    "sponsorship": "bronze",
    "technology": [
      "Android",
      "Digital Signal Processing",
      "HTML",
      "iOS",
      "JavaScript",
      "Kotlin",
      "Machine Learning",
      "Objective-C",
      "PHP",
      "Swift",
      "Wearables",
      "WordPress",
      "UI/UX"
    ]
  },
  {
    "id": "gasbuddy",
    "name": "GasBuddy",
    "website": "https://gasbuddy.com/",
    "address": "#260 - 10 Research Drive\nRegina,SK.\nS4S 7J7",
    "lat": 50.4134883,
    "lng": -104.5895543,
    "sponsorship": "silver",
    "technology": [
      "Kotlin",
      "Swift",
      "Node JS",
      "JavaScript",
      "React",
      "Python",
      "Elasticsearch",
      "AWS",
      "Docker",
      "Postgres",
      "Kubernetes",
      "Redis",
      "R",
      "Spark",
      ".NET",
      "C#"
    ]
  }
]
